[
    {
        "hospital": "Anne Arundel Medical Center",
        "hospital_id": "h39740093",
        "in_forecast": true,
        "address": "2002 Medical Pkwy, Annapolis, MD 21401, USA",
        "county": "Anne Arundel County",
        "healthcare_region": "Region III",
        "city": "Annapolis",
        "zipcode": "21401",
        "lat": 38.9903781,
        "long": -76.53737079999999,
        "place_id": "ChIJwQbdhNf2t4kR9wSFLYAT0Go"
    },
    {
        "hospital": "Atlantic General Hospital",
        "hospital_id": "h92616877",
        "in_forecast": true,
        "address": "9733 Healthway Dr, Berlin, MD 21811, USA",
        "county": "Worcester County",
        "healthcare_region": "Region IV",
        "city": "Berlin",
        "zipcode": "21811",
        "lat": 38.3396404,
        "long": -75.2115477,
        "place_id": "ChIJrTSS5gInuYkRtT2krn-1-Jw"
    },
    {
        "hospital": "Baltimore Convention Center Field Hospital",
        "hospital_id": "h94720559",
        "in_forecast": false,
        "address": "1 W Pratt St, Baltimore, MD 21201, USA",
        "county": "Baltimore City",
        "healthcare_region": "Region III",
        "city": "Baltimore",
        "zipcode": "21201",
        "lat": 39.28539079999999,
        "long": -76.6171126,
        "place_id": "ChIJqSGk9WADyIkRDVkLuWmZKdM"
    },
    {
        "hospital": "Baltimore Washington Medical Center",
        "hospital_id": "h75227743",
        "in_forecast": true,
        "address": "301 Hospital Dr, Glen Burnie, MD 21061, USA",
        "county": "Anne Arundel County",
        "healthcare_region": "Region III",
        "city": "Glen Burnie",
        "zipcode": "21061",
        "lat": 39.1378512,
        "long": -76.621786,
        "place_id": "ChIJofV1-bz8t4kRUG1GNyt_7cA"
    },
    {
        "hospital": "Bowie Medical Center",
        "hospital_id": "h26261837",
        "in_forecast": false,
        "address": "15001 Health Center Dr, Bowie, MD 20716, USA",
        "county": "Prince Georges County",
        "healthcare_region": "Region V",
        "city": "Bowie",
        "zipcode": "20716",
        "lat": 38.9494063,
        "long": -76.7459566,
        "place_id": "ChIJn0x8bI7rt4kR2KeO6HUDCGY"
    },
    {
        "hospital": "Calvert Memorial Hospital",
        "hospital_id": "h51968182",
        "in_forecast": true,
        "address": "100 Hospital Rd, Prince Frederick, MD 20678, USA",
        "county": "Calvert County",
        "healthcare_region": "Region V",
        "city": "Prince Frederick",
        "zipcode": "20678",
        "lat": 38.5593911,
        "long": -76.5963089,
        "place_id": "ChIJGf93tYmCt4kRUHcfYxctVoM"
    },
    {
        "hospital": "Carroll Hospital Center",
        "hospital_id": "h73144964",
        "in_forecast": true,
        "address": "200 Memorial Ave, Westminster, MD 21157, USA",
        "county": "Carroll County",
        "healthcare_region": "Region III",
        "city": "Westminster",
        "zipcode": "21157",
        "lat": 39.557625,
        "long": -76.99026049999999,
        "place_id": "ChIJX6DoR2s4yIkR_eqhMva6JnY"
    },
    {
        "hospital": "Charles Regional (UM)",
        "hospital_id": "h61059656",
        "in_forecast": true,
        "address": "5 Garrett Ave, La Plata, MD 20646, USA",
        "county": "Charles County",
        "healthcare_region": "Region V",
        "city": "La Plata",
        "zipcode": "20646",
        "lat": 38.5290318,
        "long": -76.9722452,
        "place_id": "ChIJL0cYbucIt4kR8Bh1L4nlJtc"
    },
    {
        "hospital": "Chestertown (UMSRH)",
        "hospital_id": "h95946725",
        "in_forecast": true,
        "address": "223 High St, Chestertown, MD 21620, USA",
        "county": "Kent County",
        "healthcare_region": "Region IV",
        "city": "Chestertown",
        "zipcode": "21620",
        "lat": 39.2085027,
        "long": -76.0656625,
        "place_id": "ChIJ_1Qaz0OLx4kRb8E80Y10zW0"
    },
    {
        "hospital": "Doctors Community Hospital",
        "hospital_id": "h82233897",
        "in_forecast": true,
        "address": "8118 Good Luck Rd, Lanham, MD 20706, USA",
        "county": "Prince Georges County",
        "healthcare_region": "Region V",
        "city": "Lanham",
        "zipcode": "20706",
        "lat": 38.9822557,
        "long": -76.8650243,
        "place_id": "ChIJlxkz022lt4kR4BGhrREiUM0"
    },
    {
        "hospital": "Dorchester (UMSRH)",
        "hospital_id": "h63139553",
        "in_forecast": true,
        "address": "300 Byrn St, Cambridge, MD 21613, USA",
        "county": "Dorchester County",
        "healthcare_region": "Region IV",
        "city": "Cambridge",
        "zipcode": "21613",
        "lat": 38.5713852,
        "long": -76.0673788,
        "place_id": "ChIJW8KAmPZJuIkReFPCqJWGcWw"
    },
    {
        "hospital": "Easton (UMSRH)",
        "hospital_id": "h48881906",
        "in_forecast": true,
        "address": "111 N W St, Easton, MD 21601, USA",
        "county": "Talbot County",
        "healthcare_region": "Region IV",
        "city": "Easton",
        "zipcode": "21601",
        "lat": 38.77550189999999,
        "long": -76.0778519,
        "place_id": "ChIJOYnetntAuIkR91bzxuuSudE"
    },
    {
        "hospital": "Edward McCready Memorial Hospital",
        "hospital_id": "h55609821",
        "in_forecast": true,
        "address": "201 Hall Hwy, Crisfield, MD 21817, USA",
        "county": "Somerset County",
        "healthcare_region": "Region IV",
        "city": "Crisfield",
        "zipcode": "21817",
        "lat": 37.9973519,
        "long": -75.8526613,
        "place_id": "ChIJ-4yXGwKbuYkRZDZUn-zDK1c"
    },
    {
        "hospital": "Fort Washington ACS",
        "hospital_id": "h30119195",
        "in_forecast": false,
        "address": "11108 Fort Washington Rd, Fort Washington, MD 20744, USA",
        "county": "Prince Georges County",
        "healthcare_region": "Region V",
        "city": "Fort Washington",
        "zipcode": "20744",
        "lat": 38.7419924,
        "long": -76.99538190000001,
        "place_id": "ChIJOU1vekOlt4kRbra8AmHuUao"
    },
    {
        "hospital": "Fort Washington Hospital",
        "hospital_id": "h24459724",
        "in_forecast": true,
        "address": "11711 Livingston Rd, Fort Washington, MD 20744, USA",
        "county": "Prince Georges County",
        "healthcare_region": "Region V",
        "city": "Fort Washington",
        "zipcode": "20744",
        "lat": 38.7285124,
        "long": -76.9925925,
        "place_id": "ChIJ8Q-M0G2lt4kR5ZiIaMcPIn0"
    },
    {
        "hospital": "Franklin Square (MedStar)",
        "hospital_id": "h41936996",
        "in_forecast": true,
        "address": "9000 Franklin Square Dr, Baltimore, MD 21237, USA",
        "county": "Baltimore County",
        "healthcare_region": "Region III",
        "city": "Baltimore",
        "zipcode": "21237",
        "lat": 39.3514535,
        "long": -76.4798076,
        "place_id": "ChIJi94w0d8HyIkRLpjbeMfJ4Ag"
    },
    {
        "hospital": "Frederick Memorial Hospital",
        "hospital_id": "h27068501",
        "in_forecast": true,
        "address": "400 W 7th St, Frederick, MD 21701, USA",
        "county": "Frederick County",
        "healthcare_region": "Region II",
        "city": "Frederick",
        "zipcode": "21701",
        "lat": 39.4233356,
        "long": -77.41472379999999,
        "place_id": "ChIJ0YmlpfnayYkRAKI6gkl5Gy8"
    },
    {
        "hospital": "Garrett Memorial Hospital (WVU)",
        "hospital_id": "h89650230",
        "in_forecast": true,
        "address": "251 N 4th St, Oakland, MD 21550, USA",
        "county": "Garrett County",
        "healthcare_region": "Region I",
        "city": "Oakland",
        "zipcode": "21550",
        "lat": 39.4133516,
        "long": -79.4008822,
        "place_id": "ChIJ3_RoFaCsSogRRR239GLaKHA"
    },
    {
        "hospital": "Germantown EC",
        "hospital_id": "h88962860",
        "in_forecast": false,
        "address": "Germantown, MD, USA",
        "county": "Montgomery County",
        "healthcare_region": "Region V",
        "city": "Germantown",
        "zipcode": null,
        "lat": 39.1731621,
        "long": -77.2716502,
        "place_id": "ChIJaVb1SHUrtokRhQqCsheruOE"
    },
    {
        "hospital": "Good Samaritan Hospital (MedStar)",
        "hospital_id": "h99606414",
        "in_forecast": true,
        "address": "5601 Loch Raven Blvd, Baltimore, MD 21239, USA",
        "county": "Baltimore City",
        "healthcare_region": "Region III",
        "city": "Baltimore",
        "zipcode": "21239",
        "lat": 39.3580471,
        "long": -76.5866301,
        "place_id": "ChIJ63mL3IQFyIkRU6K4Sol0B3E"
    },
    {
        "hospital": "Grace Medical Center",
        "hospital_id": "h55471441",
        "in_forecast": true,
        "address": "2000 W Baltimore St, Baltimore, MD 21223, USA",
        "county": "Baltimore City",
        "healthcare_region": "Region III",
        "city": "Baltimore",
        "zipcode": "21223",
        "lat": 39.2892661,
        "long": -76.6496217,
        "place_id": "ChIJb7ASF6kcyIkRXrwBvRMQcao"
    },
    {
        "hospital": "Greater Baltimore Medical Center",
        "hospital_id": "h65349594",
        "in_forecast": true,
        "address": "6701 N Charles St, Towson, MD 21204, USA",
        "county": "Baltimore County",
        "healthcare_region": "Region III",
        "city": "Towson",
        "zipcode": "21204",
        "lat": 39.3918476,
        "long": -76.62418869999999,
        "place_id": "ChIJU-Lnv-kPyIkRh_OAo-RyvuQ"
    },
    {
        "hospital": "Harbor Hospital (MedStar)",
        "hospital_id": "h26221809",
        "in_forecast": true,
        "address": "3001 S Hanover St, Baltimore, MD 21225, USA",
        "county": "Baltimore City",
        "healthcare_region": "Region III",
        "city": "Baltimore",
        "zipcode": "21225",
        "lat": 39.2515936,
        "long": -76.61378169999999,
        "place_id": "ChIJ85XEtx4DyIkRY9oxGMM1OAQ"
    },
    {
        "hospital": "Harford Memorial Hospital (UMUCH)",
        "hospital_id": "h63170115",
        "in_forecast": true,
        "address": "501 S Union Ave, Havre De Grace, MD 21078, USA",
        "county": "Harford County",
        "healthcare_region": "Region III",
        "city": "Havre de Grace",
        "zipcode": "21078",
        "lat": 39.5429695,
        "long": -76.09085739999999,
        "place_id": "ChIJ0-3S3ajAx4kR6YSZLPGiblQ"
    },
    {
        "hospital": "Holy Cross Germantown",
        "hospital_id": "h47529315",
        "in_forecast": true,
        "address": "19801 Observation Dr, Germantown, MD 20876, USA",
        "county": "Montgomery County",
        "healthcare_region": "Region V",
        "city": "Germantown",
        "zipcode": "20876",
        "lat": 39.1816721,
        "long": -77.242491,
        "place_id": "ChIJU4d3KWIstokRWbzZoJ-lXrA"
    },
    {
        "hospital": "Holy Cross Hospital",
        "hospital_id": "h32841492",
        "in_forecast": true,
        "address": "19801 Observation Dr, Germantown, MD 20876, USA",
        "county": "Montgomery County",
        "healthcare_region": "Region V",
        "city": "Germantown",
        "zipcode": "20876",
        "lat": 39.1816721,
        "long": -77.242491,
        "place_id": "ChIJU4d3KWIstokRWbzZoJ-lXrA"
    },
    {
        "hospital": "Howard County General Hospital (JHM)",
        "hospital_id": "h01871291",
        "in_forecast": true,
        "address": "5755 Cedar Ln, Columbia, MD 21044, USA",
        "county": "Howard County",
        "healthcare_region": "Region III",
        "city": "Columbia",
        "zipcode": "21044",
        "lat": 39.2133029,
        "long": -76.8836377,
        "place_id": "ChIJSwHJPxLft4kR7rkSh1PsYP4"
    },
    {
        "hospital": "Jessup Corrections ACS",
        "hospital_id": "h81795503",
        "in_forecast": false,
        "address": "131 Jennifer Rd, Annapolis, MD 21401, USA",
        "county": "Anne Arundel County",
        "healthcare_region": "Region III",
        "city": "Annapolis",
        "zipcode": "21401",
        "lat": 38.9889378,
        "long": -76.5302375,
        "place_id": "ChIJeXtn2N72t4kRAIvSKXAyxCQ"
    },
    {
        "hospital": "Johns Hopkins Bayview Medical Center",
        "hospital_id": "h71848553",
        "in_forecast": true,
        "address": "4940 Eastern Ave, Baltimore, MD 21224, USA",
        "county": "Baltimore City",
        "healthcare_region": "Region III",
        "city": "Baltimore",
        "zipcode": "21224",
        "lat": 39.2901622,
        "long": -76.5471072,
        "place_id": "ChIJY5YO5acGyIkRf4FQb5H8jz8"
    },
    {
        "hospital": "Johns Hopkins Hospital",
        "hospital_id": "h31492371",
        "in_forecast": true,
        "address": "1800 Orleans St, Baltimore, MD 21287, USA",
        "county": "Baltimore City",
        "healthcare_region": "Region III",
        "city": "Baltimore",
        "zipcode": "21287",
        "lat": 39.2967385,
        "long": -76.59273619999999,
        "place_id": "ChIJQZt_3WIEyIkRj4yKpDbd7ew"
    },
    {
        "hospital": "Laurel Regional Medical Center",
        "hospital_id": "h22336124",
        "in_forecast": false,
        "address": "7300 Van Dusen Rd, Laurel, MD 20707, USA",
        "county": "Prince Georges County",
        "healthcare_region": "Region V",
        "city": "Laurel",
        "zipcode": "20707",
        "lat": 39.08694759999999,
        "long": -76.8814318,
        "place_id": "ChIJMxZYEtvct4kRyt8em5C_W20"
    },
    {
        "hospital": "Maryland Corrections Hagerstown ACS",
        "hospital_id": "h91796760",
        "in_forecast": false,
        "address": "500 Western Maryland Pkwy, Hagerstown, MD 21740, USA",
        "county": "Washington County",
        "healthcare_region": "Region II",
        "city": "Hagerstown",
        "zipcode": "21740",
        "lat": 39.63849,
        "long": -77.76234,
        "place_id": "ChIJkykFdpbyyYkRGKvJ_YWvgoA"
    },
    {
        "hospital": "Mercy Medical Center",
        "hospital_id": "h10665696",
        "in_forecast": true,
        "address": "345 St Paul Pl, Baltimore, MD 21202, USA",
        "county": "Baltimore City",
        "healthcare_region": "Region III",
        "city": "Baltimore",
        "zipcode": "21202",
        "lat": 39.2930847,
        "long": -76.612734,
        "place_id": "ChIJPwGTyZ4EyIkRuFeRl_oktRc"
    },
    {
        "hospital": "Meritus Medical Center",
        "hospital_id": "h04568025",
        "in_forecast": true,
        "address": "11116 Medical Campus Rd, Hagerstown, MD 21742, USA",
        "county": "Washington County",
        "healthcare_region": "Region II",
        "city": "Hagerstown",
        "zipcode": "21742",
        "lat": 39.62300219999999,
        "long": -77.6845915,
        "place_id": "ChIJn3H43DjtyYkRZfwiJAPhepk"
    },
    {
        "hospital": "Midtown (UM)",
        "hospital_id": "h97946900",
        "in_forecast": false,
        "address": "827 Linden Ave, Baltimore, MD 21201, USA",
        "county": "Baltimore City",
        "healthcare_region": "Region III",
        "city": "Baltimore",
        "zipcode": "21201",
        "lat": 39.2986161,
        "long": -76.6207831,
        "place_id": "ChIJAbHBJr0EyIkRD-kw0RNMqzQ"
    },
    {
        "hospital": "Montgomery Medical Center (MedStar)",
        "hospital_id": "h02352027",
        "in_forecast": true,
        "address": "18101 Prince Philip Dr, Olney, MD 20832, USA",
        "county": "Montgomery County",
        "healthcare_region": "Region V",
        "city": "Olney",
        "zipcode": "20832",
        "lat": 39.153756,
        "long": -77.0547649,
        "place_id": "ChIJyZAubuDQt4kRbF4P6v1q4-c"
    },
    {
        "hospital": "Northwest Hospital",
        "hospital_id": "h39982428",
        "in_forecast": true,
        "address": "5401 Old Court Rd, Randallstown, MD 21133, USA",
        "county": "Baltimore County",
        "healthcare_region": "Region III",
        "city": "Randallstown",
        "zipcode": "21133",
        "lat": 39.3587545,
        "long": -76.78107949999999,
        "place_id": "ChIJlwLnfE0YyIkR2k8N9-3LpAY"
    },
    {
        "hospital": "Peninsula Regional Medical Center",
        "hospital_id": "h89427760",
        "in_forecast": true,
        "address": "100 E Carroll St, Salisbury, MD 21801, USA",
        "county": "Wicomico County",
        "healthcare_region": "Region IV",
        "city": "Salisbury",
        "zipcode": "21801",
        "lat": 38.361799,
        "long": -75.5984691,
        "place_id": "ChIJsWgL1uoDuYkRAk9TEBEMZag"
    },
    {
        "hospital": "Prince George's ACS",
        "hospital_id": "h51272781",
        "in_forecast": false,
        "address": "3750 Brown Station Rd, Upper Marlboro, MD 20772, USA",
        "county": "Prince Georges County",
        "healthcare_region": "Region V",
        "city": "Upper Marlboro",
        "zipcode": "20772",
        "lat": 38.836389,
        "long": -76.774693,
        "place_id": "ChIJh5B1lEmUt4kR0005a4DfGa0"
    },
    {
        "hospital": "Prince George's Hospital Center",
        "hospital_id": "h21463235",
        "in_forecast": true,
        "address": "3001 Hospital Dr, Cheverly, MD 20785, USA",
        "county": "Prince Georges County",
        "healthcare_region": "Region V",
        "city": "Cheverly",
        "zipcode": "20785",
        "lat": 38.9306528,
        "long": -76.92091119999999,
        "place_id": "ChIJT8uXCUvHt4kRHU7i1RvV59I"
    },
    {
        "hospital": "Queenstown Emergency Center",
        "hospital_id": "h68471469",
        "in_forecast": true,
        "address": "115 Shoreway Drive, Queenstown, MD 21658, USA",
        "county": "Queen Annes County",
        "healthcare_region": "Region IV",
        "city": "Queenstown",
        "zipcode": "21658",
        "lat": 38.96672119999999,
        "long": -76.18241069999999,
        "place_id": "ChIJve6dBvUNuIkRpu60ppP1yH0"
    },
    {
        "hospital": "Shady Grove Adventist Hospital",
        "hospital_id": "h27400796",
        "in_forecast": true,
        "address": "9901 Medical Center Dr, Rockville, MD 20850, USA",
        "county": "Montgomery County",
        "healthcare_region": "Region V",
        "city": "Rockville",
        "zipcode": "20850",
        "lat": 39.09804219999999,
        "long": -77.1982981,
        "place_id": "ChIJF04biq0ytokRtrQU7e0hVNw"
    },
    {
        "hospital": "Sinai Hospital of Baltimore",
        "hospital_id": "h91609912",
        "in_forecast": true,
        "address": "2401 W Belvedere Ave, Baltimore, MD 21215, USA",
        "county": "Baltimore City",
        "healthcare_region": "Region III",
        "city": "Baltimore",
        "zipcode": "21215",
        "lat": 39.3527435,
        "long": -76.6621962,
        "place_id": "ChIJJ5S8T8AayIkR5mjrucn5Lnc"
    },
    {
        "hospital": "Southern Maryland Hospital (MedStar)",
        "hospital_id": "h94551343",
        "in_forecast": true,
        "address": "7503 Surratts Rd, Clinton, MD 20735, USA",
        "county": "Prince Georges County",
        "healthcare_region": "Region V",
        "city": "Clinton",
        "zipcode": "20735",
        "lat": 38.7482446,
        "long": -76.87605839999999,
        "place_id": "ChIJDf9DZNS8t4kRz1r4sP7MJy0"
    },
    {
        "hospital": "St. Agnes Hospital",
        "hospital_id": "h90902269",
        "in_forecast": true,
        "address": "900 S Caton Ave, Baltimore, MD 21229, USA",
        "county": "Baltimore City",
        "healthcare_region": "Region III",
        "city": "Baltimore",
        "zipcode": "21229",
        "lat": 39.2717008,
        "long": -76.6735285,
        "place_id": "ChIJzUjq_-wcyIkRGiP7wQgohik"
    },
    {
        "hospital": "St. Joseph's (UM)",
        "hospital_id": "h04231605",
        "in_forecast": true,
        "address": "7601 Osler Dr, Towson, MD 21204, USA",
        "county": "Baltimore County",
        "healthcare_region": "Region III",
        "city": "Towson",
        "zipcode": "21204",
        "lat": 39.3873256,
        "long": -76.6111596,
        "place_id": "ChIJw2FgP5YPyIkRTJuyE6laXN4"
    },
    {
        "hospital": "St. Mary's Hospital",
        "hospital_id": "h60750772",
        "in_forecast": true,
        "address": "25500 Point Lookout Rd, Leonardtown, MD 20650, USA",
        "county": "St. Marys County",
        "healthcare_region": "Region V",
        "city": "Leonardtown",
        "zipcode": "20650",
        "lat": 38.3020953,
        "long": -76.6382144,
        "place_id": "ChIJXVbxEKpot4kRykbUmmrLvn0"
    },
    {
        "hospital": "Suburban Hospital",
        "hospital_id": "h44191077",
        "in_forecast": true,
        "address": "8600 Old Georgetown Rd, Bethesda, MD 20814, USA",
        "county": "Montgomery County",
        "healthcare_region": "Region V",
        "city": "Bethesda",
        "zipcode": "20814",
        "lat": 38.9970612,
        "long": -77.1103272,
        "place_id": "ChIJQV-qe-fLt4kRH8dxfFKdV1Q"
    },
    {
        "hospital": "Union Hospital of Cecil County",
        "hospital_id": "h36169128",
        "in_forecast": true,
        "address": "106 Bow St, Elkton, MD 21921, USA",
        "county": "Cecil County",
        "healthcare_region": "Region IV",
        "city": "Elkton",
        "zipcode": "21921",
        "lat": 39.6082002,
        "long": -75.83319039999999,
        "place_id": "ChIJ0-tSu2evx4kRazjVP4_OKgI"
    },
    {
        "hospital": "Union Memorial Hospital (MedStar)",
        "hospital_id": "h27405358",
        "in_forecast": true,
        "address": "201 E University Pkwy, Baltimore, MD 21218, USA",
        "county": "Baltimore City",
        "healthcare_region": "Region III",
        "city": "Baltimore",
        "zipcode": "21218",
        "lat": 39.32922140000001,
        "long": -76.6147644,
        "place_id": "ChIJ2WERJB4FyIkRerEyosJUBbc"
    },
    {
        "hospital": "University of Maryland Medical Center",
        "hospital_id": "h35874312",
        "in_forecast": true,
        "address": "22 S Greene St, Baltimore, MD 21201, USA",
        "county": "Baltimore City",
        "healthcare_region": "Region III",
        "city": "Baltimore",
        "zipcode": "21201",
        "lat": 39.2880132,
        "long": -76.6248449,
        "place_id": "ChIJaak3ulgDyIkRJBKO0-jW0mQ"
    },
    {
        "hospital": "Upper Chesapeake Medical Center (UMUCH)",
        "hospital_id": "h05131983",
        "in_forecast": true,
        "address": "500 Upper Chesapeake Dr, Bel Air, MD 21014, USA",
        "county": "Harford County",
        "healthcare_region": "Region III",
        "city": "Bel Air",
        "zipcode": "21014",
        "lat": 39.5192942,
        "long": -76.3460006,
        "place_id": "ChIJm1LiKOrdx4kR4AaT09y4ZD8"
    },
    {
        "hospital": "Washington Adventist ACS",
        "hospital_id": "h39760140",
        "in_forecast": false,
        "address": "7600 Flower Ave, Takoma Park, MD 20912, USA",
        "county": "Montgomery County",
        "healthcare_region": "Region V",
        "city": "Takoma Park",
        "zipcode": "20912",
        "lat": 38.9859841,
        "long": -77.000621,
        "place_id": "ChIJfdY-XRjGt4kR6pXfRYMeo2s"
    },
    {
        "hospital": "Western Maryland Medical Center (UPMC)",
        "hospital_id": "h30194845",
        "in_forecast": true,
        "address": "12502 Willowbrook Rd, Cumberland, MD 21502, USA",
        "county": "Allegany County",
        "healthcare_region": "Region I",
        "city": "Cumberland",
        "zipcode": "21502",
        "lat": 39.6483138,
        "long": -78.7335832,
        "place_id": "ChIJ43HqbDuJyokRoKuYAB1i5FQ"
    },
    {
        "hospital": "White Oak Medical Center",
        "hospital_id": "h51938610",
        "in_forecast": true,
        "address": "11890 Healing Way, Silver Spring, MD 20904, USA",
        "county": "Montgomery County",
        "healthcare_region": "Region V",
        "city": "Silver Spring",
        "zipcode": "20904",
        "lat": 39.0505206,
        "long": -76.9567856,
        "place_id": "ChIJ05suE3PFt4kRg06lbgD_N60"
    }
]
